{
"type": "FeatureCollection",
"name": "ABCD",
"crs": { "type": "name", "properties": { "name": "urn:ogc:def:crs:OGC:1.3:CRS84" } },
"features": [
{ "type": "Feature", "properties": { "ID": "1", "Projectnum": null, "Address": "Rossinistraat 1", "City": "Amersfoort", "Name": "Basisschool Caecilia", "Client": null, "Group": "Sport", "Herbestemm": "H", "URL": "http:\/\/agnova.eu\/portfolio\/uitbreiding-basisschool-caecilia\/", "Image": "02508_foto01-1920x1279.jpg", "Jaar": "-", "": null, "IcoonType": "School", "addrtype": "S", "addrlocat": "place" }, "geometry": { "type": "Point", "coordinates": [ 5.4061994, 52.1490802 ] } },
{ "type": "Feature", "properties": { "ID": "2", "Projectnum": null, "Address": "Softwareweg 5", "City": "Amersfoort", "Name": "Transformatie drukkerij tot onderwijs- en onderzoekslocatie SOMT", "Client": "SOMT University", "Group": "Sport", "Herbestemm": "H", "URL": "http:\/\/agnova.eu\/portfolio\/transformatie-drukkerij-tot-onderwijs-en-onderzoekslocatie-somt\/", "Image": "untitled-2322-copy.jpg", "Jaar": "-", "": null, "IcoonType": "Kantoor", "addrtype": "K", "addrlocat": "place" }, "geometry": { "type": "Point", "coordinates": [ 5.4120012, 52.1727101 ] } },
{ "type": "Feature", "properties": { "ID": "3", "Projectnum": null, "Address": "Courante 7", "City": "Nieuw-Vennep", "Name": "Watervillas", "Client": "Jacobswoud vof", "Group": "Wonen", "Herbestemm": null, "URL": "http:\/\/agnova.eu\/portfolio\/watervilla\/", "Image": "02541_foto011.jpg", "Jaar": "2006", "": null, "IcoonType": "Wonen", "addrtype": "W", "addrlocat": "place" }, "geometry": { "type": "Point", "coordinates": [ 4.624896, 52.2791129 ] } },
{ "type": "Feature", "properties": { "ID": "4", "Projectnum": null, "Address": "Beetslaan 10", "City": "Amersfoort", "Name": "Villas Binnenhof", "Client": "Heijmans \/ Van Zwol", "Group": "Wonen", "Herbestemm": null, "URL": "http:\/\/agnova.eu\/portfolio\/villas-binnenhof\/", "Image": "98517_foto06.jpg", "Jaar": "2001", "": null, "IcoonType": "Appartementen", "addrtype": "A", "addrlocat": "highway" }, "geometry": { "type": "Point", "coordinates": [ 5.3712139, 52.1427489 ] } },
{ "type": "Feature", "properties": { "ID": "5", "Projectnum": null, "Address": "Utrechtseweg 60", "City": "Heelsum", "Name": "Zorgwoningen", "Client": "Vilente", "Group": "Zorg", "Herbestemm": null, "URL": "http:\/\/agnova.eu\/portfolio\/het-beekdal-moet-voelen-als-thuis\/", "Image": "1004.jpg", "Jaar": "2017 – 2018", "": null, "IcoonType": "Horeca", "addrtype": "H", "addrlocat": "highway" }, "geometry": { "type": "Point", "coordinates": [ 5.7655054, 51.9811538 ] } },
{ "type": "Feature", "properties": { "ID": "6", "Projectnum": null, "Address": "Veldweg 17", "City": "Nooitgedacht", "Name": "Beschermd Wonen 48 zorgwoningen", "Client": "Stichting De Trans en Woonzorg Nederland", "Group": "Zorg", "Herbestemm": null, "URL": "http:\/\/agnova.eu\/portfolio\/zorgwoningen-in-nooitgedacht\/", "Image": "223-1920x1080.jpg", "Jaar": "2018", "": null, "IcoonType": "Sport", "addrtype": "SP", "addrlocat": "place" }, "geometry": { "type": "Point", "coordinates": [ 6.6686981, 52.968908 ] } },
{ "type": "Feature", "properties": { "ID": "7", "Projectnum": null, "Address": "Banningstraat 3", "City": "Soesterberg", "Name": "Sportvoorziening Banninghal", "Client": null, "Group": "Sport", "Herbestemm": "H", "URL": "http:\/\/agnova.eu\/portfolio\/banninghal-soesterberg\/", "Image": "IMG_7917bewerkt-1920x1583.jpg", "Jaar": "2015", "": null, "IcoonType": null, "addrtype": null, "addrlocat": "place" }, "geometry": { "type": "Point", "coordinates": [ 5.2861757, 52.1217973 ] } },
{ "type": "Feature", "properties": { "ID": "7", "Projectnum": "17562", "Address": "Jac. P. Thijsselaan 94", "City": "Zwolle", "Name": "Woningen in Breecamp-Noord", "Client": "VanWonen", "Group": "Wonen", "Herbestemm": null, "URL": "http:\/\/agnova.eu\/portfolio\/woningen-in-breecamp-noord-zwolle\/", "Image": "2-kap-achter-bewerkt-1920x1120.jpg", "Jaar": "-", "": null, "IcoonType": null, "addrtype": null, "addrlocat": "place" }, "geometry": { "type": "Point", "coordinates": [ 6.0384591, 52.5440243 ] } },
{ "type": "Feature", "properties": { "ID": "8", "Projectnum": "15501", "Address": "Prinses Marielaan 7", "City": "Amersfoort", "Name": "Villa Marie", "Client": "Particulier", "Group": "Wonen", "Herbestemm": null, "URL": "http:\/\/agnova.eu\/portfolio\/villa-marie-amersfoort\/", "Image": "DSC00373iets-bewerkt-1920x1280.jpg", "Jaar": "2015", "": null, "IcoonType": null, "addrtype": null, "addrlocat": "place" }, "geometry": { "type": "Point", "coordinates": [ 5.3737115, 52.1504008 ] } },
{ "type": "Feature", "properties": { "ID": "8", "Projectnum": null, "Address": "Bavoortseweg 17A", "City": "Leusden", "Name": "Sportcentrum Buiningpark", "Client": "gemeente Leusden", "Group": "Sport", "Herbestemm": null, "URL": "http:\/\/agnova.eu\/portfolio\/sporthal-bavoort-leusden\/", "Image": "schetsen-licht-2-2-960x678.jpg", "Jaar": "2018", "": null, "IcoonType": null, "addrtype": null, "addrlocat": "leisure" }, "geometry": { "type": "Point", "coordinates": [ 5.4126346, 52.1282984 ] } },
{ "type": "Feature", "properties": { "ID": "9", "Projectnum": "14532", "Address": "Kapelweg 117", "City": "Amersfoort", "Name": "Wooncollege", "Client": "Profund Vastgoedontwikkeling", "Group": "Wonen", "Herbestemm": "H", "URL": "http:\/\/agnova.eu\/portfolio\/wooncollege\/", "Image": "IMG_6039-e1519305686225-1920x2560.jpg", "Jaar": "2017", "": null, "IcoonType": null, "addrtype": null, "addrlocat": "place" }, "geometry": { "type": "Point", "coordinates": [ 5.3733837, 52.1392666 ] } },
{ "type": "Feature", "properties": { "ID": "9", "Projectnum": "16517", "Address": "Nobelstraat 19", "City": "Haarlem", "Name": "9 unieke appartementen in een voormalig bankgebouw met monumentale status", "Client": "BORON Management BV.", "Group": "Wonen", "Herbestemm": "H", "URL": "http:\/\/agnova.eu\/portfolio\/transformatie-postkantoor-zijlstraat-haarlem\/", "Image": "realworks_519adaf27986785b31bf024695764056_1512691200000.jpg", "Jaar": "2018 – 2019", "": null, "IcoonType": "Zorg", "addrtype": "Z", "addrlocat": "shop" }, "geometry": { "type": "Point", "coordinates": [ 4.6329588, 52.3818803 ] } },
{ "type": "Feature", "properties": { "ID": "10", "Projectnum": null, "Address": "Vlasakkerlaan 8", "City": "Aalsmeer", "Name": "Villas aan het water", "Client": "Synchroon", "Group": "Wonen", "Herbestemm": null, "URL": "http:\/\/agnova.eu\/portfolio\/watervillas-dorpshaven-aalsmeer\/", "Image": "Exterieur-1-HR-1-1920x1440.jpg", "Jaar": "2018", "": null, "IcoonType": null, "addrtype": null, "addrlocat": "place" }, "geometry": { "type": "Point", "coordinates": [ 4.7574293, 52.2715397 ] } },
{ "type": "Feature", "properties": { "ID": "11", "Projectnum": null, "Address": "Oude Rijksstraatweg", "City": "Doorn", "Name": "Woningen Rijksstraatweg", "Client": "Van Bekkum Projecten BV", "Group": "Wonen", "Herbestemm": null, "URL": "http:\/\/agnova.eu\/portfolio\/5324\/", "Image": "Doorn.jpg", "Jaar": "2012", "": null, "IcoonType": null, "addrtype": null, "addrlocat": "highway" }, "geometry": { "type": "Point", "coordinates": [ 5.31981, 52.03565 ] } },
{ "type": "Feature", "properties": { "ID": "12", "Projectnum": null, "Address": "Koningspage 39", "City": "Nijkerk", "Name": "Woningen die meegroeien in Corlaer", "Client": "Heijmans, Vos & Teeuwissen", "Group": "Wonen", "Herbestemm": null, "URL": "http:\/\/agnova.eu\/portfolio\/corlaer-revisited-nijkerk\/", "Image": "Corlaer-Nijkerk-2015-1920x1280.jpg", "Jaar": "2006", "": null, "IcoonType": null, "addrtype": null, "addrlocat": "place" }, "geometry": { "type": "Point", "coordinates": [ 5.4627076, 52.2126358 ] } },
{ "type": "Feature", "properties": { "ID": "13", "Projectnum": null, "Address": "De Blieke 33", "City": "Hollum", "Name": "Villa Ameland", "Client": "Familie Van Vliet", "Group": "Wonen", "Herbestemm": null, "URL": "http:\/\/agnova.eu\/portfolio\/uitbreiding-villa-ameland\/", "Image": "villa-Ameland-01-1920x1285.jpg", "Jaar": "2014", "": null, "IcoonType": null, "addrtype": null, "addrlocat": "place" }, "geometry": { "type": "Point", "coordinates": [ 5.6353979, 53.4489181 ] } },
{ "type": "Feature", "properties": { "ID": "14", "Projectnum": null, "Address": "Lijsbeth Tijsweg", "City": "Berkhout", "Name": "Woningen Lijsbeth Tijs", "Client": "A-Zeven projectontwikkeling", "Group": "Wonen", "Herbestemm": null, "URL": "http:\/\/agnova.eu\/portfolio\/duurzame-woningen-in-berkhout-lijsbeth-tijs-fase-1-en-2\/", "Image": "B-2012-10-10-15.22.12-1920x1412.jpg", "Jaar": "2012", "": null, "IcoonType": null, "addrtype": null, "addrlocat": "highway" }, "geometry": { "type": "Point", "coordinates": [ 4.9928466, 52.6266471 ] } },
{ "type": "Feature", "properties": { "ID": "15", "Projectnum": null, "Address": "Nilantstraat 89", "City": "Deventer", "Name": "Woningen Demter Park", "Client": "Van Wijnen", "Group": "Wonen", "Herbestemm": null, "URL": "http:\/\/agnova.eu\/portfolio\/demter-park-deventer\/", "Image": "IMG_5764bewerkt-1920x1440.jpg", "Jaar": "2013", "": null, "IcoonType": null, "addrtype": null, "addrlocat": "place" }, "geometry": { "type": "Point", "coordinates": [ 6.1619654, 52.2660138 ] } },
{ "type": "Feature", "properties": { "ID": "16", "Projectnum": null, "Address": "Hein Burgersstraat 33", "City": "Deventer", "Name": "Woningen T&D terrein", "Client": "Nijhuis Bouw", "Group": "Wonen", "Herbestemm": null, "URL": "http:\/\/agnova.eu\/portfolio\/woningen-op-het-td-terrein-deventer\/", "Image": "deventer-TD-14-04-2015-21761-1920x1280.jpg", "Jaar": "2015", "": null, "IcoonType": null, "addrtype": null, "addrlocat": "place" }, "geometry": { "type": "Point", "coordinates": [ 6.1738374, 52.2575685 ] } },
{ "type": "Feature", "properties": { "ID": "17", "Projectnum": null, "Address": "Zijpenberg 93", "City": "Amersfoort Vathorst", "Name": "Appartementen De Groene Brink", "Client": "De Alliantie Ontwikkeling en Stichting Philadelphia", "Group": "Wonen", "Herbestemm": null, "URL": "http:\/\/agnova.eu\/portfolio\/de-groene-brink-zorgappartementen\/", "Image": "07512_foto08-1920x1279.jpg", "Jaar": "2009", "": null, "IcoonType": null, "addrtype": null, "addrlocat": "place" }, "geometry": { "type": "Point", "coordinates": [ 5.4178478, 52.196207 ] } },
{ "type": "Feature", "properties": { "ID": "18", "Projectnum": null, "Address": "Violierstraat 20", "City": "Beuningen", "Name": "Appartementen Centrumplan-Oost", "Client": "Standvast Wonen", "Group": "Wonen", "Herbestemm": null, "URL": "http:\/\/agnova.eu\/portfolio\/beuningen-appartementen-locatie-centrumplan-oost\/", "Image": "07503-06-1920x2880.jpg", "Jaar": "2007", "": null, "IcoonType": null, "addrtype": null, "addrlocat": "place" }, "geometry": { "type": "Point", "coordinates": [ 5.775988, 51.8615689 ] } },
{ "type": "Feature", "properties": { "ID": "19", "Projectnum": null, "Address": "Sportlaan 19", "City": "Zwolle", "Name": "Woningen in Breecamp-Oost,", "Client": "AM", "Group": "Wonen", "Herbestemm": null, "URL": "agnova.eu\/portfolio\/duurzame-woningen-in-zwolle\/", "Image": "08517_foto_04-1920x1279.jpg", "Jaar": "2011", "": null, "IcoonType": null, "addrtype": null, "addrlocat": "place" }, "geometry": { "type": "Point", "coordinates": [ 6.0392237, 52.5420495 ] } },
{ "type": "Feature", "properties": { "ID": "20", "Projectnum": null, "Address": "Achter de Kamp 238", "City": "Amersfoort", "Name": "Studentenwoningen in de binnenstad", "Client": "Portaal Vastgoedontwikkeling", "Group": "Wonen", "Herbestemm": null, "URL": "http:\/\/agnova.eu\/portfolio\/wonen-in-de-binnenstad-amersfoort\/", "Image": "Achter-de-Kamp-04.jpg", "Jaar": "-", "": null, "IcoonType": null, "addrtype": null, "addrlocat": "highway" }, "geometry": { "type": "Point", "coordinates": [ 5.3971786, 52.1585484 ] } },
{ "type": "Feature", "properties": { "ID": "21", "Projectnum": null, "Address": "Jacob Barneveldstraat 56", "City": "Linschoten", "Name": "Woningen op maat Parc Voorvliet", "Client": "Latei projectontwikkeling", "Group": "Wonen", "Herbestemm": null, "URL": "http:\/\/agnova.eu\/portfolio\/linschoten\/", "Image": "Latei-02.jpg", "Jaar": "2016", "": null, "IcoonType": null, "addrtype": null, "addrlocat": "place" }, "geometry": { "type": "Point", "coordinates": [ 4.9213437, 52.0656345 ] } },
{ "type": "Feature", "properties": { "ID": "22", "Projectnum": null, "Address": "De Biezenkamp 8", "City": "Leusden", "Name": "Appartementen De Asschat", "Client": "Woningstichting Leusden", "Group": "Wonen", "Herbestemm": null, "URL": "http:\/\/agnova.eu\/portfolio\/de-asschat\/", "Image": "Biezenkamp-1920x1440.jpg", "Jaar": "2007", "": null, "IcoonType": null, "addrtype": null, "addrlocat": "highway" }, "geometry": { "type": "Point", "coordinates": [ 5.4276548, 52.137108 ] } },
{ "type": "Feature", "properties": { "ID": "23", "Projectnum": null, "Address": "Lijnbaan 3", "City": "Aalsmeer", "Name": "Woningen aan het water in Dorpshaven", "Client": "Synchroon", "Group": "Wonen", "Herbestemm": null, "URL": "http:\/\/agnova.eu\/portfolio\/lijnbaan-deelgebied\/", "Image": "B-DSC_0077-1920x1300.jpg", "Jaar": "2017", "": null, "IcoonType": null, "addrtype": null, "addrlocat": "place" }, "geometry": { "type": "Point", "coordinates": [ 4.7561532, 52.2715993 ] } },
{ "type": "Feature", "properties": { "ID": "24", "Projectnum": null, "Address": "Zandkamp 287", "City": "Amersfoort", "Name": "Villa te Velde", "Client": "Particulier", "Group": "Wonen", "Herbestemm": null, "URL": "http:\/\/agnova.eu\/portfolio\/villa-te-velde-in-hoogland-bij-amersfoort\/", "Image": "03541_foto02-1920x1279.jpg", "Jaar": "2005", "": null, "IcoonType": null, "addrtype": null, "addrlocat": "place" }, "geometry": { "type": "Point", "coordinates": [ 5.3720957, 52.1910214 ] } },
{ "type": "Feature", "properties": { "ID": "25", "Projectnum": null, "Address": "Stadshagen", "City": "Zwolle", "Name": "Woningen in Werkerhoven", "Client": "AM Wonen Zwolle", "Group": "Wonen", "Herbestemm": null, "URL": "http:\/\/agnova.eu\/portfolio\/stadshagen-werkerhoven\/", "Image": "06509_foto02-1920x1279.jpg", "Jaar": "-", "": null, "IcoonType": null, "addrtype": null, "addrlocat": "place" }, "geometry": { "type": "Point", "coordinates": [ 6.0536753, 52.5346018 ] } },
{ "type": "Feature", "properties": { "ID": "26", "Projectnum": null, "Address": "Van Disselstraat 59", "City": "Zwolle", "Name": "Woningen in De Rietkraag", "Client": "AM Wonen Zwolle", "Group": "Wonen", "Herbestemm": null, "URL": "http:\/\/agnova.eu\/portfolio\/de-rietkraag-zwolle\/", "Image": "01536_foto05-1920x1279.jpg", "Jaar": "-", "": null, "IcoonType": null, "addrtype": null, "addrlocat": "place" }, "geometry": { "type": "Point", "coordinates": [ 6.036769, 52.5405864 ] } },
{ "type": "Feature", "properties": { "ID": "27", "Projectnum": null, "Address": "Thea Beckmanweg 56", "City": "Grootebroek", "Name": "Woningen in Oosterweed", "Client": "BEMOG, Bouwfonds, Zeeman Vastgoed, De Woonschakel", "Group": "Wonen", "Herbestemm": null, "URL": "http:\/\/agnova.eu\/portfolio\/tweede-fase-oosterweed-te-stede-broec\/", "Image": "01536_foto05-1920x1279.jpg", "Jaar": "-", "": null, "IcoonType": null, "addrtype": null, "addrlocat": "place" }, "geometry": { "type": "Point", "coordinates": [ 5.2182609, 52.7018187 ] } },
{ "type": "Feature", "properties": { "ID": "28", "Projectnum": null, "Address": "Van Woustraat 9", "City": "Amersfoort", "Name": "Vuurtorenwoning", "Client": null, "Group": "Wonen", "Herbestemm": null, "URL": "http:\/\/agnova.eu\/portfolio\/vuurtoren-woning\/", "Image": "00536_foto04-1920x1279.jpg", "Jaar": "-", "": null, "IcoonType": null, "addrtype": null, "addrlocat": "place" }, "geometry": { "type": "Point", "coordinates": [ 5.3907636, 52.1489308 ] } },
{ "type": "Feature", "properties": { "ID": "29", "Projectnum": null, "Address": "Zijpenberg 121", "City": "Amersfoort Vathorst", "Name": "Woningen aan de Brink", "Client": null, "Group": "Wonen", "Herbestemm": null, "URL": "http:\/\/agnova.eu\/portfolio\/de-groene-brink-rijwoningen-oost\/", "Image": "03536_foto011-1920x1279.jpg", "Jaar": "-", "": null, "IcoonType": null, "addrtype": null, "addrlocat": "place" }, "geometry": { "type": "Point", "coordinates": [ 5.4166921, 52.1962036 ] } },
{ "type": "Feature", "properties": { "ID": "30", "Projectnum": null, "Address": "Machineweg 27", "City": "Aalsmeer", "Name": "Woningen in Nieuw Oosteinde", "Client": null, "Group": "Wonen", "Herbestemm": null, "URL": "agnova.eu\/portfolio\/nieuw-oosteinde-1-5\/", "Image": "05533_foto011-1920x1279.jpg", "Jaar": "-", "": null, "IcoonType": null, "addrtype": null, "addrlocat": "highway" }, "geometry": { "type": "Point", "coordinates": [ 4.7925814, 52.2745306 ] } },
{ "type": "Feature", "properties": { "ID": "34", "Projectnum": null, "Address": "Kerklaan 7", "City": "Hoogland", "Name": "Basisschool De Langenoord", "Client": "Stichting KPOA", "Group": "Onderwijs", "Herbestemm": null, "URL": "http:\/\/agnova.eu\/portfolio\/uitbreiding-basisschool-de-langenoord\/", "Image": "07511_foto04-1920x1279.jpg", "Jaar": "2009", "": null, "IcoonType": null, "addrtype": null, "addrlocat": "amenity" }, "geometry": { "type": "Point", "coordinates": [ 5.3817627, 52.1906155 ] } },
{ "type": "Feature", "properties": { "ID": "35", "Projectnum": null, "Address": "Spaarnestraat 2", "City": "Amersfoort", "Name": "Basisschool De Kubus Dependance,", "Client": "Stichting KPOA", "Group": "Onderwijs", "Herbestemm": null, "URL": "http:\/\/agnova.eu\/portfolio\/renovatie-basisschool-de-kubus-dependance\/", "Image": "05537_foto02-1920x1279.jpg", "Jaar": "2011", "": null, "IcoonType": null, "addrtype": null, "addrlocat": "place" }, "geometry": { "type": "Point", "coordinates": [ 5.3699918, 52.1602396 ] } },
{ "type": "Feature", "properties": { "ID": "36", "Projectnum": null, "Address": "Disselplein 10", "City": "Hooglanderveen", "Name": "Basisschool Sint Joseph", "Client": "OBV Vathorst", "Group": "Onderwijs", "Herbestemm": null, "URL": "http:\/\/agnova.eu\/portfolio\/sint-joseph-basisschool-in-hooglanderveen\/", "Image": "05536_foto01-1920x1279.jpg", "Jaar": "-", "": null, "IcoonType": null, "addrtype": null, "addrlocat": "amenity" }, "geometry": { "type": "Point", "coordinates": [ 5.433418, 52.1843738 ] } },
{ "type": "Feature", "properties": { "ID": "37", "Projectnum": null, "Address": "Koning Karelpad 12", "City": "Amersfoort", "Name": "Basisschool De Tafelronde", "Client": null, "Group": "Onderwijs", "Herbestemm": null, "URL": "http:\/\/agnova.eu\/portfolio\/uitbreiding-basisschool-de-tafelronde\/", "Image": "07501_foto02-1920x1279.jpg", "Jaar": "-", "": null, "IcoonType": null, "addrtype": null, "addrlocat": "amenity" }, "geometry": { "type": "Point", "coordinates": [ 5.3862569, 52.1716914 ] } },
{ "type": "Feature", "properties": { "ID": "38", "Projectnum": null, "Address": "Spaarnestraat 2", "City": "Amersfoort", "Name": "Basisschool de Kubus", "Client": "Stichting KPOA", "Group": "Onderwijs", "Herbestemm": null, "URL": "http:\/\/agnova.eu\/portfolio\/basisschool-de-kubus-hoofdlokatie\/", "Image": "02509_foto01-1920x1279.jpg", "Jaar": "2004", "": null, "IcoonType": null, "addrtype": null, "addrlocat": "place" }, "geometry": { "type": "Point", "coordinates": [ 5.3699918, 52.1602396 ] } },
{ "type": "Feature", "properties": { "ID": "39", "Projectnum": null, "Address": "Tollenslaan 2", "City": "Amersfoort", "Name": "Basisschool Op de Berg", "Client": "Stichting KPOA", "Group": "Onderwijs", "Herbestemm": null, "URL": "http:\/\/agnova.eu\/portfolio\/uitbreidingbasisschool-op-de-berg\/", "Image": "02517_foto03-1920x1279.jpg", "Jaar": "-", "": null, "IcoonType": null, "addrtype": null, "addrlocat": "place" }, "geometry": { "type": "Point", "coordinates": [ 5.3735732, 52.1439867 ] } },
{ "type": "Feature", "properties": { "ID": "40", "Projectnum": null, "Address": "Wieder 37", "City": "De Goorn", "Name": "Kantoor Hecon", "Client": "Hecon", "Group": "Kantoor", "Herbestemm": null, "URL": "http:\/\/agnova.eu\/portfolio\/kantoor-hecon\/", "Image": "02524_foto07-1920x1279.jpg", "Jaar": "-", "": null, "IcoonType": null, "addrtype": null, "addrlocat": "place" }, "geometry": { "type": "Point", "coordinates": [ 4.9663138, 52.6228751 ] } },
{ "type": "Feature", "properties": { "ID": "41", "Projectnum": null, "Address": "Paulus Borstraat 43", "City": "Amersfoort", "Name": "Transformatie Henricuskerk", "Client": "agNOVA", "Group": "Kantoor", "Herbestemm": null, "URL": "http:\/\/agnova.eu\/portfolio\/henricuskerk\/", "Image": "IMG_3109-1920x1440.jpg", "Jaar": "-", "": null, "IcoonType": null, "addrtype": null, "addrlocat": "place" }, "geometry": { "type": "Point", "coordinates": [ 5.3725802, 52.1580272 ] } },
{ "type": "Feature", "properties": { "ID": "43", "Projectnum": null, "Address": "Rondgang 18", "City": "Assen", "Name": "Sportcluster Kloosterveste", "Client": "BAM vastgoedontwikkeling", "Group": "Sport", "Herbestemm": null, "URL": "http:\/\/agnova.eu\/portfolio\/assen-kloosterveste-cluster-3-sportvoorzieningen\/", "Image": "10341-44-1920x1280.jpg", "Jaar": "-", "": null, "IcoonType": null, "addrtype": null, "addrlocat": "shop" }, "geometry": { "type": "Point", "coordinates": [ 6.5133449, 52.9998861 ] } },
{ "type": "Feature", "properties": { "ID": "44", "Projectnum": null, "Address": "Nieuwlandseweg 4", "City": "Amersfoort", "Name": "Clubhuis van TVN Tennis Park Nieuwland", "Client": null, "Group": "Sport", "Herbestemm": null, "URL": "http:\/\/agnova.eu\/portfolio\/clubhuis-van-tv-nieuwland\/", "Image": "02540_foto01-1920x1279.jpg", "Jaar": "2005", "": null, "IcoonType": null, "addrtype": null, "addrlocat": "place" }, "geometry": { "type": "Point", "coordinates": [ 5.3874317, 52.2004421 ] } },
{ "type": "Feature", "properties": { "ID": "45", "Projectnum": null, "Address": "Kiepennest 8", "City": "Hooglanderveen", "Name": "Woonzorgcentrum Veenhorst", "Client": null, "Group": "Zorg", "Herbestemm": null, "URL": "http:\/\/agnova.eu\/portfolio\/hooglanderveen-woonzorgcentrum-veenhorst-43-appartementen\/", "Image": "05509_foto08-1920x1279.jpg", "Jaar": "-", "": null, "IcoonType": null, "addrtype": null, "addrlocat": "place" }, "geometry": { "type": "Point", "coordinates": [ 5.4354524, 52.1885228 ] } }
]
}
